%time,field.header.seq,field.header.stamp,field.header.frame_id,field.status.status,field.status.service,field.latitude,field.longitude,field.altitude,field.position_covariance0,field.position_covariance1,field.position_covariance2,field.position_covariance3,field.position_covariance4,field.position_covariance5,field.position_covariance6,field.position_covariance7,field.position_covariance8,field.position_covariance_type
1631907700774848075,32270,1631907700780952522,gps,0,0,39.81279662494716,-86.34155842932267,261.4142681704834,0.0,0.0,0.0,0.0,0.0,0.0,0.0,0.0,0.0,0
1631907700824789009,32271,1631907700830532593,gps,0,0,39.81279258521128,-86.34155835681241,261.4293791130185,0.0,0.0,0.0,0.0,0.0,0.0,0.0,0.0,0.0,0
1631907700874864655,32272,1631907700880955534,gps,0,0,39.81278855612931,-86.34155829997653,261.43372800014913,0.0,0.0,0.0,0.0,0.0,0.0,0.0,0.0,0.0,0
1631907700924750584,32273,1631907700930520370,gps,0,0,39.812784519397596,-86.34155830090481,261.41901629418135,0.0,0.0,0.0,0.0,0.0,0.0,0.0,0.0,0.0,0
1631907700974742007,32274,1631907700980005079,gps,0,0,39.812780523195265,-86.34155827104502,261.4320939388126,0.0,0.0,0.0,0.0,0.0,0.0,0.0,0.0,0.0,0
1631907701049866338,32275,1631907701062420474,gps,0,0,39.812776466277654,-86.3415582278842,261.43274773284793,0.0,0.0,0.0,0.0,0.0,0.0,0.0,0.0,0.0,0
1631907701074778047,32276,1631907701079695767,gps,0,0,39.81277243667989,-86.3415582366947,261.4352633226663,0.0,0.0,0.0,0.0,0.0,0.0,0.0,0.0,0.0,0
1631907701124748757,32277,1631907701132448500,gps,0,0,39.812768427283494,-86.34155821054915,261.4405436478555,0.0,0.0,0.0,0.0,0.0,0.0,0.0,0.0,0.0,0
1631907701174785189,32278,1631907701185939920,gps,0,0,39.81276442431521,-86.34155824206601,261.44958795420825,0.0,0.0,0.0,0.0,0.0,0.0,0.0,0.0,0.0,0
1631907701224784883,32279,1631907701231253166,gps,0,0,39.81276038688734,-86.34155818293365,261.4558966346085,0.0,0.0,0.0,0.0,0.0,0.0,0.0,0.0,0.0,0
1631907701274774821,32280,1631907701280371200,gps,0,0,39.81275632536817,-86.34155815377301,261.42388230841607,0.0,0.0,0.0,0.0,0.0,0.0,0.0,0.0,0.0,0
1631907701324750740,32281,1631907701330559442,gps,0,0,39.81275231309937,-86.34155814361945,261.42263386026025,0.0,0.0,0.0,0.0,0.0,0.0,0.0,0.0,0.0,0
1631907701374845297,32282,1631907701380913006,gps,0,0,39.81274828226971,-86.34155811236661,261.43151584174484,0.0,0.0,0.0,0.0,0.0,0.0,0.0,0.0,0.0,0
1631907701424766794,32283,1631907701429674753,gps,0,0,39.81274428589518,-86.34155811905667,261.4358746521175,0.0,0.0,0.0,0.0,0.0,0.0,0.0,0.0,0.0,0
1631907701474783184,32284,1631907701480526350,gps,0,0,39.812740283856876,-86.34155815953125,261.43385175894946,0.0,0.0,0.0,0.0,0.0,0.0,0.0,0.0,0.0,0
1631907701524797187,32285,1631907701535351122,gps,0,0,39.81273623766276,-86.34155814799287,261.4364463929087,0.0,0.0,0.0,0.0,0.0,0.0,0.0,0.0,0.0,0
1631907701574874585,32286,1631907701581353219,gps,0,0,39.81273225844707,-86.3415581008427,261.4366521453485,0.0,0.0,0.0,0.0,0.0,0.0,0.0,0.0,0.0,0
1631907701624814021,32287,1631907701629365550,gps,0,0,39.81272825812065,-86.34155809382187,261.43830033764243,0.0,0.0,0.0,0.0,0.0,0.0,0.0,0.0,0.0,0
1631907701674882790,32288,1631907701680545672,gps,0,0,39.81272425165202,-86.34155809355656,261.4377638781443,0.0,0.0,0.0,0.0,0.0,0.0,0.0,0.0,0.0,0
1631907701725063598,32289,1631907701730352787,gps,0,0,39.81272024560835,-86.3415580713049,261.4349831081927,0.0,0.0,0.0,0.0,0.0,0.0,0.0,0.0,0.0,0
1631907701774852253,32290,1631907701779791006,gps,0,0,39.81271628117081,-86.34155801256503,261.43751093465835,0.0,0.0,0.0,0.0,0.0,0.0,0.0,0.0,0.0,0
1631907701824809894,32291,1631907701829322462,gps,0,0,39.81271229087032,-86.34155799618992,261.4421590194106,0.0,0.0,0.0,0.0,0.0,0.0,0.0,0.0,0.0,0
1631907701874789119,32292,1631907701880110545,gps,0,0,39.81270832838011,-86.34155799233021,261.44982722308487,0.0,0.0,0.0,0.0,0.0,0.0,0.0,0.0,0.0,0
1631907701924914012,32293,1631907701930919570,gps,0,0,39.81270437133301,-86.34155797241631,261.4485372630879,0.0,0.0,0.0,0.0,0.0,0.0,0.0,0.0,0.0,0
1631907701974836622,32294,1631907701980091688,gps,0,0,39.81270036528215,-86.3415579483337,261.4374489886686,0.0,0.0,0.0,0.0,0.0,0.0,0.0,0.0,0.0,0
1631907702049698097,32295,1631907702070926320,gps,0,0,39.81269646046934,-86.34155791613742,261.45016658026725,0.0,0.0,0.0,0.0,0.0,0.0,0.0,0.0,0.0,0
1631907702074778740,32296,1631907702081321682,gps,0,0,39.81269250321769,-86.34155789895743,261.462259195745,0.0,0.0,0.0,0.0,0.0,0.0,0.0,0.0,0.0,0
1631907702124861239,32297,1631907702131619519,gps,0,0,39.81268857620055,-86.34155789684834,261.45655009150505,0.0,0.0,0.0,0.0,0.0,0.0,0.0,0.0,0.0,0
1631907702174854511,32298,1631907702180826794,gps,0,0,39.81268462072018,-86.3415578564459,261.45493102353066,0.0,0.0,0.0,0.0,0.0,0.0,0.0,0.0,0.0,0
1631907702224844848,32299,1631907702229568881,gps,0,0,39.81268070224152,-86.34155784541221,261.4648213442415,0.0,0.0,0.0,0.0,0.0,0.0,0.0,0.0,0.0,0
1631907702274855164,32300,1631907702280141291,gps,0,0,39.81267681875896,-86.34155785917862,261.46598170883954,0.0,0.0,0.0,0.0,0.0,0.0,0.0,0.0,0.0,0
1631907702324846242,32301,1631907702330192332,gps,0,0,39.81267292890018,-86.34155785068772,261.466197472997,0.0,0.0,0.0,0.0,0.0,0.0,0.0,0.0,0.0,0
1631907702374883446,32302,1631907702379790056,gps,0,0,39.81266905968892,-86.34155787609573,261.4689090847969,0.0,0.0,0.0,0.0,0.0,0.0,0.0,0.0,0.0,0
1631907702424804602,32303,1631907702429644788,gps,0,0,39.81266518642328,-86.3415578638808,261.4691247185692,0.0,0.0,0.0,0.0,0.0,0.0,0.0,0.0,0.0,0
1631907702474851881,32304,1631907702481971956,gps,0,0,39.81266133237045,-86.3415578991995,261.4715094557032,0.0,0.0,0.0,0.0,0.0,0.0,0.0,0.0,0.0,0
1631907702524796541,32305,1631907702542135574,gps,0,0,39.81265749370808,-86.34155791790883,261.47728559281677,0.0,0.0,0.0,0.0,0.0,0.0,0.0,0.0,0.0,0
1631907702574802555,32306,1631907702579932370,gps,0,0,39.812653550582695,-86.34155783128263,261.4871000908315,0.0,0.0,0.0,0.0,0.0,0.0,0.0,0.0,0.0,0
1631907702624806587,32307,1631907702629630372,gps,0,0,39.81264971288001,-86.34155782472372,261.49026724603027,0.0,0.0,0.0,0.0,0.0,0.0,0.0,0.0,0.0,0
1631907702674807849,32308,1631907702680047053,gps,0,0,39.81264581021702,-86.341557743379,261.48025904223323,0.0,0.0,0.0,0.0,0.0,0.0,0.0,0.0,0.0,0
1631907702724865815,32309,1631907702730820535,gps,0,0,39.81264192513636,-86.34155769088913,261.4680242370814,0.0,0.0,0.0,0.0,0.0,0.0,0.0,0.0,0.0,0
1631907702774771876,32310,1631907702780488646,gps,0,0,39.812638029101564,-86.34155758189114,261.4697495410219,0.0,0.0,0.0,0.0,0.0,0.0,0.0,0.0,0.0,0
1631907702824897915,32311,1631907702829035189,gps,0,0,39.81263415761691,-86.34155746141383,261.4845517044887,0.0,0.0,0.0,0.0,0.0,0.0,0.0,0.0,0.0,0
1631907702874804397,32312,1631907702880052759,gps,0,0,39.81263027527994,-86.34155737083962,261.50005726423115,0.0,0.0,0.0,0.0,0.0,0.0,0.0,0.0,0.0,0
1631907702924791359,32313,1631907702930541160,gps,0,0,39.81262637747864,-86.34155734678907,261.49396223481745,0.0,0.0,0.0,0.0,0.0,0.0,0.0,0.0,0.0,0
1631907702974775209,32314,1631907702978671356,gps,0,0,39.81262248912261,-86.34155727221709,261.49166184850037,0.0,0.0,0.0,0.0,0.0,0.0,0.0,0.0,0.0,0
1631907703049816998,32315,1631907703066064845,gps,0,0,39.8126185970853,-86.34155715577029,261.4962694980204,0.0,0.0,0.0,0.0,0.0,0.0,0.0,0.0,0.0,0
1631907703074802285,32316,1631907703080005954,gps,0,0,39.812614716331936,-86.3415570313969,261.5027540093288,0.0,0.0,0.0,0.0,0.0,0.0,0.0,0.0,0.0,0
1631907703124804162,32317,1631907703132022615,gps,0,0,39.81261079309821,-86.34155694081255,261.50217344332486,0.0,0.0,0.0,0.0,0.0,0.0,0.0,0.0,0.0,0
1631907703174815234,32318,1631907703180156685,gps,0,0,39.812606876860166,-86.3415568632115,261.50272106565535,0.0,0.0,0.0,0.0,0.0,0.0,0.0,0.0,0.0,0
1631907703224817555,32319,1631907703229374209,gps,0,0,39.81260295386288,-86.34155683634492,261.5117283593863,0.0,0.0,0.0,0.0,0.0,0.0,0.0,0.0,0.0,0
1631907703274781842,32320,1631907703279859177,gps,0,0,39.8125990374196,-86.34155674122292,261.51913391333073,0.0,0.0,0.0,0.0,0.0,0.0,0.0,0.0,0.0,0
1631907703324815085,32321,1631907703332010907,gps,0,0,39.81259511800714,-86.34155660772475,261.50944108329713,0.0,0.0,0.0,0.0,0.0,0.0,0.0,0.0,0.0,0
1631907703374894239,32322,1631907703378996470,gps,0,0,39.81259120518024,-86.34155649136338,261.5065923994407,0.0,0.0,0.0,0.0,0.0,0.0,0.0,0.0,0.0,0
1631907703424816752,32323,1631907703429600485,gps,0,0,39.81258724886793,-86.34155642001772,261.5184815451503,0.0,0.0,0.0,0.0,0.0,0.0,0.0,0.0,0.0,0
1631907703474823554,32324,1631907703483304072,gps,0,0,39.81258319614937,-86.34155629369165,261.5208098804578,0.0,0.0,0.0,0.0,0.0,0.0,0.0,0.0,0.0,0
1631907703524808014,32325,1631907703535936548,gps,0,0,39.81257909855123,-86.3415561794619,261.50732411351055,0.0,0.0,0.0,0.0,0.0,0.0,0.0,0.0,0.0,0
1631907703574873085,32326,1631907703579592335,gps,0,0,39.81257501527887,-86.34155605446736,261.5050454288721,0.0,0.0,0.0,0.0,0.0,0.0,0.0,0.0,0.0,0
1631907703624847278,32327,1631907703628657528,gps,0,0,39.81257081283945,-86.34155590813334,261.5071460288018,0.0,0.0,0.0,0.0,0.0,0.0,0.0,0.0,0.0,0
1631907703674866952,32328,1631907703679804646,gps,0,0,39.8125665642526,-86.34155577054493,261.51084597501904,0.0,0.0,0.0,0.0,0.0,0.0,0.0,0.0,0.0,0
1631907703724869680,32329,1631907703730565588,gps,0,0,39.812562363575694,-86.34155562276194,261.5148007962853,0.0,0.0,0.0,0.0,0.0,0.0,0.0,0.0,0.0,0
1631907703774820976,32330,1631907703779716340,gps,0,0,39.81255818462408,-86.34155547240145,261.51559404470026,0.0,0.0,0.0,0.0,0.0,0.0,0.0,0.0,0.0,0
1631907703824797475,32331,1631907703828591079,gps,0,0,39.812553962433356,-86.34155535909842,261.50954445265234,0.0,0.0,0.0,0.0,0.0,0.0,0.0,0.0,0.0,0
1631907703874781405,32332,1631907703880288167,gps,0,0,39.81254975277261,-86.3415551893656,261.4754709331319,0.0,0.0,0.0,0.0,0.0,0.0,0.0,0.0,0.0,0
1631907703924827359,32333,1631907703930948242,gps,0,0,39.812545655259086,-86.341555053912,261.53645431250334,0.0,0.0,0.0,0.0,0.0,0.0,0.0,0.0,0.0,0
1631907703974898154,32334,1631907703979547190,gps,0,0,39.812541470877754,-86.34155487833375,261.54463492985815,0.0,0.0,0.0,0.0,0.0,0.0,0.0,0.0,0.0,0
1631907704049868237,32335,1631907704059899466,gps,0,0,39.812537311940176,-86.34155466417576,261.52268129307777,0.0,0.0,0.0,0.0,0.0,0.0,0.0,0.0,0.0,0
1631907704074897091,32336,1631907704080754782,gps,0,0,39.81253319859919,-86.34155459009739,261.5365633610636,0.0,0.0,0.0,0.0,0.0,0.0,0.0,0.0,0.0,0
1631907704124822086,32337,1631907704132936699,gps,0,0,39.812529085134685,-86.34155455374808,261.53166767489165,0.0,0.0,0.0,0.0,0.0,0.0,0.0,0.0,0.0,0
1631907704174813341,32338,1631907704181706655,gps,0,0,39.81252504426614,-86.34155446749823,261.55669772066176,0.0,0.0,0.0,0.0,0.0,0.0,0.0,0.0,0.0,0
1631907704224814431,32339,1631907704234465087,gps,0,0,39.81252091078992,-86.3415543581177,261.5156047837809,0.0,0.0,0.0,0.0,0.0,0.0,0.0,0.0,0.0,0
1631907704274839898,32340,1631907704280301260,gps,0,0,39.812516849880396,-86.34155443359626,261.52226634323597,0.0,0.0,0.0,0.0,0.0,0.0,0.0,0.0,0.0,0
1631907704324913825,32341,1631907704332066686,gps,0,0,39.812512848967245,-86.34155435164116,261.56323574017733,0.0,0.0,0.0,0.0,0.0,0.0,0.0,0.0,0.0,0
1631907704374856577,32342,1631907704380078623,gps,0,0,39.81250879400616,-86.34155427240374,261.5340629853308,0.0,0.0,0.0,0.0,0.0,0.0,0.0,0.0,0.0,0
1631907704424833719,32343,1631907704431497663,gps,0,0,39.81250477945251,-86.3415543213931,261.51529175322503,0.0,0.0,0.0,0.0,0.0,0.0,0.0,0.0,0.0,0
1631907704474839565,32344,1631907704480394570,gps,0,0,39.812500792529256,-86.34155432642304,261.5358971096575,0.0,0.0,0.0,0.0,0.0,0.0,0.0,0.0,0.0,0
1631907704524910451,32345,1631907704535848949,gps,0,0,39.81249675020658,-86.34155432451949,261.52410559076816,0.0,0.0,0.0,0.0,0.0,0.0,0.0,0.0,0.0,0
1631907704574858416,32346,1631907704580883917,gps,0,0,39.8124927119566,-86.34155425330921,261.5280053028837,0.0,0.0,0.0,0.0,0.0,0.0,0.0,0.0,0.0,0
1631907704624823396,32347,1631907704630124180,gps,0,0,39.8124886203504,-86.34155422794134,261.5123054208234,0.0,0.0,0.0,0.0,0.0,0.0,0.0,0.0,0.0,0
1631907704674916085,32348,1631907704680068759,gps,0,0,39.81248453088219,-86.34155420502772,261.51599272340536,0.0,0.0,0.0,0.0,0.0,0.0,0.0,0.0,0.0,0
1631907704724956843,32349,1631907704731030648,gps,0,0,39.812480458399904,-86.34155423127366,261.53191777318716,0.0,0.0,0.0,0.0,0.0,0.0,0.0,0.0,0.0,0
1631907704774862203,32350,1631907704780275402,gps,0,0,39.812476305247074,-86.34155418296616,261.5181091306731,0.0,0.0,0.0,0.0,0.0,0.0,0.0,0.0,0.0,0
1631907704824823525,32351,1631907704829156569,gps,0,0,39.81247224051379,-86.34155416099189,261.52619629725814,0.0,0.0,0.0,0.0,0.0,0.0,0.0,0.0,0.0,0
1631907704874844304,32352,1631907704879847413,gps,0,0,39.81246814689649,-86.34155416172705,261.51971937622875,0.0,0.0,0.0,0.0,0.0,0.0,0.0,0.0,0.0,0
1631907704924817348,32353,1631907704931090269,gps,0,0,39.81246408924433,-86.34155420728048,261.51403486635536,0.0,0.0,0.0,0.0,0.0,0.0,0.0,0.0,0.0,0
1631907704974835895,32354,1631907704979894070,gps,0,0,39.81246000485378,-86.34155422617444,261.5270108766854,0.0,0.0,0.0,0.0,0.0,0.0,0.0,0.0,0.0,0
1631907705049827889,32355,1631907705061407316,gps,0,0,39.81245587500425,-86.34155428321912,261.5133939590305,0.0,0.0,0.0,0.0,0.0,0.0,0.0,0.0,0.0,0
1631907705074814386,32356,1631907705086340713,gps,0,0,39.812451773271,-86.34155435997219,261.5066678263247,0.0,0.0,0.0,0.0,0.0,0.0,0.0,0.0,0.0,0
1631907705124848604,32357,1631907705132808895,gps,0,0,39.81244773355446,-86.34155438237427,261.5129159903154,0.0,0.0,0.0,0.0,0.0,0.0,0.0,0.0,0.0,0
1631907705174849678,32358,1631907705180543627,gps,0,0,39.812443597675596,-86.34155442450495,261.5070100380108,0.0,0.0,0.0,0.0,0.0,0.0,0.0,0.0,0.0,0
1631907705224843613,32359,1631907705231125745,gps,0,0,39.81243949829539,-86.3415544762483,261.50597796496004,0.0,0.0,0.0,0.0,0.0,0.0,0.0,0.0,0.0,0
1631907705274842586,32360,1631907705280795247,gps,0,0,39.81243536987062,-86.34155451401848,261.50660360604525,0.0,0.0,0.0,0.0,0.0,0.0,0.0,0.0,0.0,0
1631907705324877592,32361,1631907705330389748,gps,0,0,39.812431325259695,-86.34155459930618,261.51574601698667,0.0,0.0,0.0,0.0,0.0,0.0,0.0,0.0,0.0,0
1631907705374837858,32362,1631907705379361687,gps,0,0,39.812427246058625,-86.34155468573142,261.52313531097025,0.0,0.0,0.0,0.0,0.0,0.0,0.0,0.0,0.0,0
1631907705424915413,32363,1631907705430688085,gps,0,0,39.81242311046312,-86.34155477284102,261.51173483673483,0.0,0.0,0.0,0.0,0.0,0.0,0.0,0.0,0.0,0
1631907705474807219,32364,1631907705479626041,gps,0,0,39.81241898213525,-86.34155487272865,261.5083053279668,0.0,0.0,0.0,0.0,0.0,0.0,0.0,0.0,0.0,0
1631907705524824539,32365,1631907705536056830,gps,0,0,39.81241488812863,-86.34155497172112,261.5122835757211,0.0,0.0,0.0,0.0,0.0,0.0,0.0,0.0,0.0,0
1631907705574845610,32366,1631907705579909657,gps,0,0,39.81241079749799,-86.34155510274391,261.5147041697055,0.0,0.0,0.0,0.0,0.0,0.0,0.0,0.0,0.0,0
1631907705624822123,32367,1631907705630493453,gps,0,0,39.81240670184962,-86.34155519285717,261.51836589258164,0.0,0.0,0.0,0.0,0.0,0.0,0.0,0.0,0.0,0
1631907705649828610,32368,1631907705679635134,gps,0,0,39.81240258965747,-86.34155534402556,261.5131296198815,0.0,0.0,0.0,0.0,0.0,0.0,0.0,0.0,0.0,0
1631907705724862556,32369,1631907705730695950,gps,0,0,39.81239851941951,-86.34155549110119,261.51720662694424,0.0,0.0,0.0,0.0,0.0,0.0,0.0,0.0,0.0,0
1631907705774833507,32370,1631907705781708735,gps,0,0,39.812394438599476,-86.34155565203676,261.5097196502611,0.0,0.0,0.0,0.0,0.0,0.0,0.0,0.0,0.0,0
1631907705824804208,32371,1631907705829520222,gps,0,0,39.812390363581656,-86.34155578348808,261.52206001151353,0.0,0.0,0.0,0.0,0.0,0.0,0.0,0.0,0.0,0
1631907705874932107,32372,1631907705881886488,gps,0,0,39.81238625099122,-86.3415559202302,261.5256059318781,0.0,0.0,0.0,0.0,0.0,0.0,0.0,0.0,0.0,0
1631907705924811860,32373,1631907705930401736,gps,0,0,39.81238219624262,-86.34155605921762,261.5226927222684,0.0,0.0,0.0,0.0,0.0,0.0,0.0,0.0,0.0,0
1631907705974821980,32374,1631907705979021237,gps,0,0,39.81237814147719,-86.34155624157768,261.5173126682639,0.0,0.0,0.0,0.0,0.0,0.0,0.0,0.0,0.0,0
1631907706049819217,32375,1631907706061782634,gps,0,0,39.81237411565158,-86.34155635295257,261.52794123534113,0.0,0.0,0.0,0.0,0.0,0.0,0.0,0.0,0.0,0
1631907706074897461,32376,1631907706081570318,gps,0,0,39.81237004647908,-86.34155654948735,261.51687891222537,0.0,0.0,0.0,0.0,0.0,0.0,0.0,0.0,0.0,0
1631907706124915201,32377,1631907706130718779,gps,0,0,39.81236604231584,-86.34155666152054,261.52052473742515,0.0,0.0,0.0,0.0,0.0,0.0,0.0,0.0,0.0,0
1631907706199955672,32378,1631907706200120472,gps,0,0,39.81236201458447,-86.34155686624233,261.51382823940367,0.0,0.0,0.0,0.0,0.0,0.0,0.0,0.0,0.0,0
1631907706224857173,32379,1631907706231778694,gps,0,0,39.81235796310356,-86.34155710323144,261.52796487044543,0.0,0.0,0.0,0.0,0.0,0.0,0.0,0.0,0.0,0
1631907706274843486,32380,1631907706280340766,gps,0,0,39.81235379055161,-86.3415573472332,261.51498169079423,0.0,0.0,0.0,0.0,0.0,0.0,0.0,0.0,0.0,0
1631907706324854341,32381,1631907706330049909,gps,0,0,39.812349663383266,-86.34155755189073,261.51787401363254,0.0,0.0,0.0,0.0,0.0,0.0,0.0,0.0,0.0,0
1631907706374865161,32382,1631907706378852297,gps,0,0,39.81234550238026,-86.34155773255011,261.52783779241145,0.0,0.0,0.0,0.0,0.0,0.0,0.0,0.0,0.0,0
1631907706424861581,32383,1631907706430672062,gps,0,0,39.812341401174216,-86.34155798835108,261.5206572143361,0.0,0.0,0.0,0.0,0.0,0.0,0.0,0.0,0.0,0
1631907706474905702,32384,1631907706480750430,gps,0,0,39.812337230626014,-86.34155823990969,261.5065123103559,0.0,0.0,0.0,0.0,0.0,0.0,0.0,0.0,0.0,0
1631907706524928464,32385,1631907706535373424,gps,0,0,39.81233309863362,-86.34155849381145,261.50467667356133,0.0,0.0,0.0,0.0,0.0,0.0,0.0,0.0,0.0,0
1631907706574855229,32386,1631907706579908453,gps,0,0,39.81232898911884,-86.34155874012777,261.5097778411582,0.0,0.0,0.0,0.0,0.0,0.0,0.0,0.0,0.0,0
1631907706624843046,32387,1631907706630738396,gps,0,0,39.81232489052562,-86.3415589925293,261.5070150187239,0.0,0.0,0.0,0.0,0.0,0.0,0.0,0.0,0.0,0
1631907706674798372,32388,1631907706679633397,gps,0,0,39.81232083579108,-86.34155925612662,261.5161131992936,0.0,0.0,0.0,0.0,0.0,0.0,0.0,0.0,0.0,0
1631907706724846502,32389,1631907706730455138,gps,0,0,39.812316766482944,-86.34155951315151,261.5132858986035,0.0,0.0,0.0,0.0,0.0,0.0,0.0,0.0,0.0,0
1631907706774859726,32390,1631907706783421446,gps,0,0,39.81231268868091,-86.34155983373387,261.5097861783579,0.0,0.0,0.0,0.0,0.0,0.0,0.0,0.0,0.0,0
1631907706824852772,32391,1631907706830825344,gps,0,0,39.81230863996124,-86.34156004905344,261.5107067665085,0.0,0.0,0.0,0.0,0.0,0.0,0.0,0.0,0.0,0
1631907706874861551,32392,1631907706879601435,gps,0,0,39.812304566892095,-86.34156032171829,261.5190017307177,0.0,0.0,0.0,0.0,0.0,0.0,0.0,0.0,0.0,0
1631907706924941735,32393,1631907706930307563,gps,0,0,39.81230049243791,-86.34156047504248,261.51589829288423,0.0,0.0,0.0,0.0,0.0,0.0,0.0,0.0,0.0,0
1631907706974924442,32394,1631907706979409338,gps,0,0,39.81229643124962,-86.3415607021447,261.5116401836276,0.0,0.0,0.0,0.0,0.0,0.0,0.0,0.0,0.0,0
1631907707049846660,32395,1631907707061801427,gps,0,0,39.81229239942323,-86.34156093231087,261.5057894801721,0.0,0.0,0.0,0.0,0.0,0.0,0.0,0.0,0.0,0
1631907707074914957,32396,1631907707080462286,gps,0,0,39.812288367957045,-86.34156115044806,261.50336806848645,0.0,0.0,0.0,0.0,0.0,0.0,0.0,0.0,0.0,0
1631907707124862352,32397,1631907707131111414,gps,0,0,39.8122843059757,-86.34156134645801,261.50459827762097,0.0,0.0,0.0,0.0,0.0,0.0,0.0,0.0,0.0,0
1631907707174893269,32398,1631907707183495420,gps,0,0,39.812280278673626,-86.34156152776224,261.51351010333747,0.0,0.0,0.0,0.0,0.0,0.0,0.0,0.0,0.0,0
1631907707224868866,32399,1631907707232422049,gps,0,0,39.812276255441006,-86.34156171691927,261.5129300747067,0.0,0.0,0.0,0.0,0.0,0.0,0.0,0.0,0.0,0
1631907707274837188,32400,1631907707280063168,gps,0,0,39.81227226792157,-86.34156190380722,261.4961684271693,0.0,0.0,0.0,0.0,0.0,0.0,0.0,0.0,0.0,0
1631907707324851784,32401,1631907707331145084,gps,0,0,39.812268212319246,-86.34156210748013,261.49009324330837,0.0,0.0,0.0,0.0,0.0,0.0,0.0,0.0,0.0,0
1631907707374842262,32402,1631907707379673085,gps,0,0,39.812264122012145,-86.34156222852235,261.48990838136524,0.0,0.0,0.0,0.0,0.0,0.0,0.0,0.0,0.0,0
1631907707424862249,32403,1631907707429560578,gps,0,0,39.81226006358587,-86.34156240339597,261.4908451521769,0.0,0.0,0.0,0.0,0.0,0.0,0.0,0.0,0.0,0
1631907707474837690,32404,1631907707480778770,gps,0,0,39.81225595643672,-86.34156257180152,261.48141172342,0.0,0.0,0.0,0.0,0.0,0.0,0.0,0.0,0.0,0
1631907707524860983,32405,1631907707536031876,gps,0,0,39.81225185175716,-86.34156273904637,261.48959242366254,0.0,0.0,0.0,0.0,0.0,0.0,0.0,0.0,0.0,0
1631907707574845637,32406,1631907707579866837,gps,0,0,39.81224774218118,-86.34156292091481,261.4897824646905,0.0,0.0,0.0,0.0,0.0,0.0,0.0,0.0,0.0,0
1631907707624871804,32407,1631907707629880289,gps,0,0,39.812243657954554,-86.34156308275296,261.4826408093795,0.0,0.0,0.0,0.0,0.0,0.0,0.0,0.0,0.0,0
1631907707674869416,32408,1631907707680054595,gps,0,0,39.812239560179194,-86.34156322398326,261.4686468858272,0.0,0.0,0.0,0.0,0.0,0.0,0.0,0.0,0.0,0
1631907707724927767,32409,1631907707730570226,gps,0,0,39.812235455049915,-86.3415633861312,261.46824351418763,0.0,0.0,0.0,0.0,0.0,0.0,0.0,0.0,0.0,0
1631907707774895143,32410,1631907707780303438,gps,0,0,39.81223134666361,-86.34156352472574,261.45987935643643,0.0,0.0,0.0,0.0,0.0,0.0,0.0,0.0,0.0,0
1631907707824846826,32411,1631907707830760508,gps,0,0,39.8122272334858,-86.34156368095633,261.4582439204678,0.0,0.0,0.0,0.0,0.0,0.0,0.0,0.0,0.0,0
1631907707874861500,32412,1631907707880553390,gps,0,0,39.812223099092414,-86.34156382256569,261.45403813850135,0.0,0.0,0.0,0.0,0.0,0.0,0.0,0.0,0.0,0
1631907707924866078,32413,1631907707930340946,gps,0,0,39.81221904041531,-86.3415639478659,261.4474325031042,0.0,0.0,0.0,0.0,0.0,0.0,0.0,0.0,0.0,0
1631907707974826219,32414,1631907707979828399,gps,0,0,39.812214964682695,-86.34156406802211,261.44023863971233,0.0,0.0,0.0,0.0,0.0,0.0,0.0,0.0,0.0,0
1631907708049833377,32415,1631907708061982340,gps,0,0,39.812210850763336,-86.34156418267264,261.4380784779787,0.0,0.0,0.0,0.0,0.0,0.0,0.0,0.0,0.0,0
1631907708074952362,32416,1631907708082936405,gps,0,0,39.812206739699555,-86.3415643173931,261.4306329432875,0.0,0.0,0.0,0.0,0.0,0.0,0.0,0.0,0.0,0
1631907708124857221,32417,1631907708135472905,gps,0,0,39.81220261044438,-86.34156446256965,261.4238576358184,0.0,0.0,0.0,0.0,0.0,0.0,0.0,0.0,0.0,0
1631907708174858188,32418,1631907708186225563,gps,0,0,39.812198528634475,-86.34156454875752,261.4248730652034,0.0,0.0,0.0,0.0,0.0,0.0,0.0,0.0,0.0,0
1631907708224936992,32419,1631907708231948770,gps,0,0,39.81219442688892,-86.34156467561314,261.4246340226382,0.0,0.0,0.0,0.0,0.0,0.0,0.0,0.0,0.0,0
1631907708274884501,32420,1631907708280596715,gps,0,0,39.81219027987551,-86.3415647951375,261.4326680749655,0.0,0.0,0.0,0.0,0.0,0.0,0.0,0.0,0.0,0
1631907708324954128,32421,1631907708330791829,gps,0,0,39.812186191428616,-86.34156492555813,261.4189790021628,0.0,0.0,0.0,0.0,0.0,0.0,0.0,0.0,0.0,0
1631907708374912254,32422,1631907708379836962,gps,0,0,39.81218207470253,-86.34156500650866,261.42332038935274,0.0,0.0,0.0,0.0,0.0,0.0,0.0,0.0,0.0,0
1631907708424876989,32423,1631907708428903721,gps,0,0,39.812178023109404,-86.34156515979653,261.4168497286737,0.0,0.0,0.0,0.0,0.0,0.0,0.0,0.0,0.0,0
1631907708474957292,32424,1631907708480591203,gps,0,0,39.81217389374374,-86.34156533045723,261.4162315223366,0.0,0.0,0.0,0.0,0.0,0.0,0.0,0.0,0.0,0
1631907708524898880,32425,1631907708536234282,gps,0,0,39.812169800843,-86.34156550029003,261.4111434398219,0.0,0.0,0.0,0.0,0.0,0.0,0.0,0.0,0.0,0
1631907708574947269,32426,1631907708579116053,gps,0,0,39.812165690643276,-86.34156559825348,261.41300308983773,0.0,0.0,0.0,0.0,0.0,0.0,0.0,0.0,0.0,0
1631907708624936685,32427,1631907708631999391,gps,0,0,39.8121615786881,-86.34156575647678,261.41206046100706,0.0,0.0,0.0,0.0,0.0,0.0,0.0,0.0,0.0,0
1631907708674867208,32428,1631907708680334750,gps,0,0,39.81215747098623,-86.34156587217723,261.396196979098,0.0,0.0,0.0,0.0,0.0,0.0,0.0,0.0,0.0,0
1631907708724945711,32429,1631907708730403489,gps,0,0,39.81215337482311,-86.34156604888953,261.3903036052361,0.0,0.0,0.0,0.0,0.0,0.0,0.0,0.0,0.0,0
1631907708774949884,32430,1631907708780297682,gps,0,0,39.81214926729385,-86.34156618387784,261.39653906133026,0.0,0.0,0.0,0.0,0.0,0.0,0.0,0.0,0.0,0
1631907708824840668,32431,1631907708830606495,gps,0,0,39.812145151050245,-86.34156632129903,261.3943594591692,0.0,0.0,0.0,0.0,0.0,0.0,0.0,0.0,0.0,0
1631907708874929225,32432,1631907708880283301,gps,0,0,39.8121410209518,-86.34156644641958,261.38570974301547,0.0,0.0,0.0,0.0,0.0,0.0,0.0,0.0,0.0,0
1631907708924843912,32433,1631907708931258482,gps,0,0,39.812136899265596,-86.34156658167656,261.3816168103367,0.0,0.0,0.0,0.0,0.0,0.0,0.0,0.0,0.0,0
1631907708974909132,32434,1631907708979558730,gps,0,0,39.81213279095783,-86.34156672018356,261.38705483917147,0.0,0.0,0.0,0.0,0.0,0.0,0.0,0.0,0.0,0
1631907709049858834,32435,1631907709063124011,gps,0,0,39.81212868440833,-86.34156688266167,261.37723361793905,0.0,0.0,0.0,0.0,0.0,0.0,0.0,0.0,0.0,0
1631907709074884324,32436,1631907709080302878,gps,0,0,39.81212457323268,-86.34156702226097,261.37846700288355,0.0,0.0,0.0,0.0,0.0,0.0,0.0,0.0,0.0,0
1631907709124930970,32437,1631907709141437964,gps,0,0,39.81212045144853,-86.3415671506501,261.3780003208667,0.0,0.0,0.0,0.0,0.0,0.0,0.0,0.0,0.0,0
1631907709174980346,32438,1631907709180077420,gps,0,0,39.81211631955667,-86.34156725962917,261.3779148478061,0.0,0.0,0.0,0.0,0.0,0.0,0.0,0.0,0.0,0
1631907709224991647,32439,1631907709230324363,gps,0,0,39.81211222317785,-86.34156737703961,261.3728826995939,0.0,0.0,0.0,0.0,0.0,0.0,0.0,0.0,0.0,0
1631907709274880342,32440,1631907709279350630,gps,0,0,39.81210812488444,-86.34156748128214,261.3759748991579,0.0,0.0,0.0,0.0,0.0,0.0,0.0,0.0,0.0,0
1631907709324940071,32441,1631907709330993186,gps,0,0,39.81210403885388,-86.34156761911001,261.38721610512584,0.0,0.0,0.0,0.0,0.0,0.0,0.0,0.0,0.0,0
1631907709374975852,32442,1631907709379827407,gps,0,0,39.81209993577703,-86.34156773066086,261.3878705352545,0.0,0.0,0.0,0.0,0.0,0.0,0.0,0.0,0.0,0
1631907709424846585,32443,1631907709429358861,gps,0,0,39.81209586785914,-86.34156781741132,261.4081437885761,0.0,0.0,0.0,0.0,0.0,0.0,0.0,0.0,0.0,0
1631907709474862357,32444,1631907709480042852,gps,0,0,39.812091790011756,-86.34156792877859,261.4143185066059,0.0,0.0,0.0,0.0,0.0,0.0,0.0,0.0,0.0,0
1631907709524866242,32445,1631907709538154590,gps,0,0,39.812087669070095,-86.34156803363487,261.41100869327784,0.0,0.0,0.0,0.0,0.0,0.0,0.0,0.0,0.0,0
1631907709574885747,32446,1631907709579108082,gps,0,0,39.81208361725405,-86.3415681547833,261.3947066143155,0.0,0.0,0.0,0.0,0.0,0.0,0.0,0.0,0.0,0
1631907709624898252,32447,1631907709630045222,gps,0,0,39.81207952503348,-86.34156830158481,261.3845764044672,0.0,0.0,0.0,0.0,0.0,0.0,0.0,0.0,0.0,0
1631907709674928389,32448,1631907709680753025,gps,0,0,39.812075470332736,-86.3415684605939,261.39144231937826,0.0,0.0,0.0,0.0,0.0,0.0,0.0,0.0,0.0,0
1631907709724921991,32449,1631907709730546818,gps,0,0,39.81207138024223,-86.34156862822012,261.38445378560573,0.0,0.0,0.0,0.0,0.0,0.0,0.0,0.0,0.0,0
1631907709774880211,32450,1631907709780475784,gps,0,0,39.812067301163985,-86.34156877168355,261.3970774328336,0.0,0.0,0.0,0.0,0.0,0.0,0.0,0.0,0.0,0
1631907709824967807,32451,1631907709829690986,gps,0,0,39.81206325508499,-86.34156892348568,261.40545128285885,0.0,0.0,0.0,0.0,0.0,0.0,0.0,0.0,0.0,0
1631907709874853503,32452,1631907709880257642,gps,0,0,39.812059170942064,-86.34156908608335,261.39746309258044,0.0,0.0,0.0,0.0,0.0,0.0,0.0,0.0,0.0,0
1631907709924950444,32453,1631907709930844832,gps,0,0,39.81205512399177,-86.3415692947782,261.3963060127571,0.0,0.0,0.0,0.0,0.0,0.0,0.0,0.0,0.0,0
1631907709974941440,32454,1631907709980319754,gps,0,0,39.812051074150475,-86.34156946319735,261.4036204703152,0.0,0.0,0.0,0.0,0.0,0.0,0.0,0.0,0.0,0
1631907710049976101,32455,1631907710061274146,gps,0,0,39.812047007610886,-86.34156964862844,261.40187727846205,0.0,0.0,0.0,0.0,0.0,0.0,0.0,0.0,0.0,0
1631907710074887690,32456,1631907710088777012,gps,0,0,39.81204293835226,-86.34156986175815,261.39684333186597,0.0,0.0,0.0,0.0,0.0,0.0,0.0,0.0,0.0,0
1631907710124976817,32457,1631907710134130015,gps,0,0,39.81203889396509,-86.34157007909836,261.39172645658255,0.0,0.0,0.0,0.0,0.0,0.0,0.0,0.0,0.0,0
1631907710174990749,32458,1631907710197120560,gps,0,0,39.81203487644466,-86.34157028888531,261.39681439474225,0.0,0.0,0.0,0.0,0.0,0.0,0.0,0.0,0.0,0
1631907710224919829,32459,1631907710232212361,gps,0,0,39.81203079275552,-86.34157048503069,261.4013500455767,0.0,0.0,0.0,0.0,0.0,0.0,0.0,0.0,0.0,0
1631907710274989164,32460,1631907710278778166,gps,0,0,39.812026704812965,-86.34157066921591,261.37802405748516,0.0,0.0,0.0,0.0,0.0,0.0,0.0,0.0,0.0,0
1631907710324903115,32461,1631907710330841192,gps,0,0,39.81202267206552,-86.34157087779002,261.38477470353246,0.0,0.0,0.0,0.0,0.0,0.0,0.0,0.0,0.0,0
1631907710374991738,32462,1631907710380799234,gps,0,0,39.81201864310178,-86.34157110100894,261.37739799544215,0.0,0.0,0.0,0.0,0.0,0.0,0.0,0.0,0.0,0
1631907710424897549,32463,1631907710430522676,gps,0,0,39.81201456056028,-86.34157134218371,261.36220509558916,0.0,0.0,0.0,0.0,0.0,0.0,0.0,0.0,0.0,0
1631907710474850287,32464,1631907710480633550,gps,0,0,39.812010536815855,-86.341571587426,261.35757176578045,0.0,0.0,0.0,0.0,0.0,0.0,0.0,0.0,0.0,0
1631907710524927623,32465,1631907710539116282,gps,0,0,39.81200651072254,-86.34157181313107,261.3565105618909,0.0,0.0,0.0,0.0,0.0,0.0,0.0,0.0,0.0,0
1631907710574915298,32466,1631907710578854519,gps,0,0,39.812002466732345,-86.34157202022325,261.35765437502414,0.0,0.0,0.0,0.0,0.0,0.0,0.0,0.0,0.0,0
1631907710624905465,32467,1631907710629674956,gps,0,0,39.81199842090805,-86.34157223191438,261.35518203675747,0.0,0.0,0.0,0.0,0.0,0.0,0.0,0.0,0.0,0
1631907710674927434,32468,1631907710682026882,gps,0,0,39.81199436919399,-86.34157245693088,261.3435484962538,0.0,0.0,0.0,0.0,0.0,0.0,0.0,0.0,0.0,0
1631907710724890326,32469,1631907710730376438,gps,0,0,39.81199030687368,-86.34157266174665,261.33314855769277,0.0,0.0,0.0,0.0,0.0,0.0,0.0,0.0,0.0,0
1631907710774894351,32470,1631907710780753370,gps,0,0,39.811986269380085,-86.34157287979197,261.3290472133085,0.0,0.0,0.0,0.0,0.0,0.0,0.0,0.0,0.0,0
1631907710824848696,32471,1631907710828779796,gps,0,0,39.81198221875408,-86.34157313544996,261.341982813552,0.0,0.0,0.0,0.0,0.0,0.0,0.0,0.0,0.0,0
1631907710874985280,32472,1631907710880052118,gps,0,0,39.81197813529494,-86.34157330662819,261.3241117801517,0.0,0.0,0.0,0.0,0.0,0.0,0.0,0.0,0.0,0
1631907710924917318,32473,1631907710930374622,gps,0,0,39.81197409080942,-86.34157351943759,261.31650744657964,0.0,0.0,0.0,0.0,0.0,0.0,0.0,0.0,0.0,0
1631907710974943751,32474,1631907710980138970,gps,0,0,39.81197005006635,-86.3415736689297,261.31439985428005,0.0,0.0,0.0,0.0,0.0,0.0,0.0,0.0,0.0,0
1631907711049974068,32475,1631907711060483145,gps,0,0,39.81196594756201,-86.34157388251124,261.30814296752214,0.0,0.0,0.0,0.0,0.0,0.0,0.0,0.0,0.0,0
1631907711074950361,32476,1631907711080126815,gps,0,0,39.81196186079041,-86.3415740771521,261.30628268793225,0.0,0.0,0.0,0.0,0.0,0.0,0.0,0.0,0.0,0
1631907711124933768,32477,1631907711136810184,gps,0,0,39.81195779002365,-86.3415742412501,261.2989726085216,0.0,0.0,0.0,0.0,0.0,0.0,0.0,0.0,0.0,0
1631907711175005184,32478,1631907711189362094,gps,0,0,39.811953689892185,-86.34157441572405,261.2880578925833,0.0,0.0,0.0,0.0,0.0,0.0,0.0,0.0,0.0,0
1631907711224866800,32479,1631907711234018246,gps,0,0,39.81194960247784,-86.34157456762317,261.27991343755275,0.0,0.0,0.0,0.0,0.0,0.0,0.0,0.0,0.0,0
1631907711274988130,32480,1631907711279326335,gps,0,0,39.81194551481881,-86.3415747759177,261.28552754130214,0.0,0.0,0.0,0.0,0.0,0.0,0.0,0.0,0.0,0
1631907711324912636,32481,1631907711330848190,gps,0,0,39.81194145469214,-86.34157491659683,261.30205721594393,0.0,0.0,0.0,0.0,0.0,0.0,0.0,0.0,0.0,0
1631907711374959926,32482,1631907711380566104,gps,0,0,39.81193737818269,-86.34157509090167,261.2982266480103,0.0,0.0,0.0,0.0,0.0,0.0,0.0,0.0,0.0,0
1631907711424914091,32483,1631907711428661282,gps,0,0,39.81193329585262,-86.34157524243932,261.2752071581781,0.0,0.0,0.0,0.0,0.0,0.0,0.0,0.0,0.0,0
1631907711474912626,32484,1631907711481019925,gps,0,0,39.81192919917574,-86.3415753734832,261.2775251707062,0.0,0.0,0.0,0.0,0.0,0.0,0.0,0.0,0.0,0
1631907711524983619,32485,1631907711535585549,gps,0,0,39.81192508291311,-86.34157547495622,261.27657941449434,0.0,0.0,0.0,0.0,0.0,0.0,0.0,0.0,0.0,0
1631907711574895064,32486,1631907711579808403,gps,0,0,39.811921027984525,-86.3415756373682,261.27676491998136,0.0,0.0,0.0,0.0,0.0,0.0,0.0,0.0,0.0,0
1631907711624897786,32487,1631907711629577228,gps,0,0,39.81191692834101,-86.34157573049757,261.26874470338225,0.0,0.0,0.0,0.0,0.0,0.0,0.0,0.0,0.0,0
1631907711674912147,32488,1631907711680677905,gps,0,0,39.81191282448505,-86.34157581254175,261.26648707687855,0.0,0.0,0.0,0.0,0.0,0.0,0.0,0.0,0.0,0
1631907711724872675,32489,1631907711730247274,gps,0,0,39.811908725157956,-86.34157586175574,261.26534373965114,0.0,0.0,0.0,0.0,0.0,0.0,0.0,0.0,0.0,0
1631907711774953618,32490,1631907711780461049,gps,0,0,39.811904613072414,-86.34157591404453,261.2542704967782,0.0,0.0,0.0,0.0,0.0,0.0,0.0,0.0,0.0,0
1631907711824997000,32491,1631907711829877582,gps,0,0,39.81190050867364,-86.3415759551131,261.2557945456356,0.0,0.0,0.0,0.0,0.0,0.0,0.0,0.0,0.0,0
1631907711874987384,32492,1631907711880362552,gps,0,0,39.81189639753857,-86.34157596664193,261.2634255569428,0.0,0.0,0.0,0.0,0.0,0.0,0.0,0.0,0.0,0
1631907711924934796,32493,1631907711930967991,gps,0,0,39.81189230046244,-86.34157600067316,261.2458110945299,0.0,0.0,0.0,0.0,0.0,0.0,0.0,0.0,0.0,0
1631907711974903523,32494,1631907711979898407,gps,0,0,39.811888193598655,-86.34157605854371,261.2413551369682,0.0,0.0,0.0,0.0,0.0,0.0,0.0,0.0,0.0,0
1631907712049930911,32495,1631907712062852630,gps,0,0,39.8118840942444,-86.34157608954679,261.2476439271122,0.0,0.0,0.0,0.0,0.0,0.0,0.0,0.0,0.0,0
1631907712075024200,32496,1631907712080970505,gps,0,0,39.811879985880225,-86.34157607980532,261.2458010567352,0.0,0.0,0.0,0.0,0.0,0.0,0.0,0.0,0.0,0
1631907712124923287,32497,1631907712136790934,gps,0,0,39.8118758744393,-86.34157605930629,261.2364358222112,0.0,0.0,0.0,0.0,0.0,0.0,0.0,0.0,0.0,0
1631907712174864931,32498,1631907712184380712,gps,0,0,39.81187176221148,-86.34157608564485,261.2342496002093,0.0,0.0,0.0,0.0,0.0,0.0,0.0,0.0,0.0,0
1631907712224938368,32499,1631907712230104963,gps,0,0,39.81186763829471,-86.3415760407569,261.21581382956356,0.0,0.0,0.0,0.0,0.0,0.0,0.0,0.0,0.0,0
1631907712274956658,32500,1631907712278807550,gps,0,0,39.81186351676602,-86.34157603346144,261.20989560429007,0.0,0.0,0.0,0.0,0.0,0.0,0.0,0.0,0.0,0
1631907712324917436,32501,1631907712330008754,gps,0,0,39.81185939262863,-86.34157596048543,261.19998688437045,0.0,0.0,0.0,0.0,0.0,0.0,0.0,0.0,0.0,0
1631907712374911811,32502,1631907712380534834,gps,0,0,39.811855260228604,-86.3415758977825,261.19661182910204,0.0,0.0,0.0,0.0,0.0,0.0,0.0,0.0,0.0,0
1631907712424922160,32503,1631907712429677391,gps,0,0,39.81185115331595,-86.3415758190975,261.1881369901821,0.0,0.0,0.0,0.0,0.0,0.0,0.0,0.0,0.0,0
1631907712474929169,32504,1631907712482154022,gps,0,0,39.81184703381007,-86.34157570176711,261.19350716099143,0.0,0.0,0.0,0.0,0.0,0.0,0.0,0.0,0.0,0
1631907712524921907,32505,1631907712537681697,gps,0,0,39.811842917590475,-86.34157560707081,261.19217550195754,0.0,0.0,0.0,0.0,0.0,0.0,0.0,0.0,0.0,0
1631907712574946965,32506,1631907712580839397,gps,0,0,39.81183879983519,-86.34157551680791,261.18859159201384,0.0,0.0,0.0,0.0,0.0,0.0,0.0,0.0,0.0,0
1631907712624965495,32507,1631907712630153647,gps,0,0,39.81183467518931,-86.34157537538819,261.18055876530707,0.0,0.0,0.0,0.0,0.0,0.0,0.0,0.0,0.0,0
1631907712675008777,32508,1631907712680229029,gps,0,0,39.81183053689033,-86.3415752053245,261.1751553211361,0.0,0.0,0.0,0.0,0.0,0.0,0.0,0.0,0.0,0
1631907712724924540,32509,1631907712730066241,gps,0,0,39.81182639552079,-86.34157505118743,261.17206178046763,0.0,0.0,0.0,0.0,0.0,0.0,0.0,0.0,0.0,0
1631907712775074233,32510,1631907712780742217,gps,0,0,39.81182223778855,-86.34157487949781,261.1398454196751,0.0,0.0,0.0,0.0,0.0,0.0,0.0,0.0,0.0,0
1631907712824938579,32511,1631907712830866203,gps,0,0,39.8118181110278,-86.34157470421268,261.13514931779355,0.0,0.0,0.0,0.0,0.0,0.0,0.0,0.0,0.0,0
1631907712874976380,32512,1631907712878881977,gps,0,0,39.81181399378481,-86.34157446489712,261.14885932486504,0.0,0.0,0.0,0.0,0.0,0.0,0.0,0.0,0.0,0
1631907712924937626,32513,1631907712930634126,gps,0,0,39.81180984244197,-86.34157428086255,261.1297311000526,0.0,0.0,0.0,0.0,0.0,0.0,0.0,0.0,0.0,0
1631907712975026022,32514,1631907712979267730,gps,0,0,39.81180573218569,-86.34157406612023,261.12058143131435,0.0,0.0,0.0,0.0,0.0,0.0,0.0,0.0,0.0,0
1631907713049959375,32515,1631907713058909788,gps,0,0,39.81180162710922,-86.34157376863965,261.1145323012024,0.0,0.0,0.0,0.0,0.0,0.0,0.0,0.0,0.0,0
1631907713075020198,32516,1631907713080258837,gps,0,0,39.81179750565317,-86.34157362325588,261.1223604027182,0.0,0.0,0.0,0.0,0.0,0.0,0.0,0.0,0.0,0
1631907713124920023,32517,1631907713133229816,gps,0,0,39.81179334768893,-86.34157348809158,261.1143804527819,0.0,0.0,0.0,0.0,0.0,0.0,0.0,0.0,0.0,0
1631907713174859404,32518,1631907713184629652,gps,0,0,39.811789220084385,-86.341573300277,261.087203906849,0.0,0.0,0.0,0.0,0.0,0.0,0.0,0.0,0.0,0
1631907713224992745,32519,1631907713230081793,gps,0,0,39.8117851184885,-86.34157305471024,261.09750961791724,0.0,0.0,0.0,0.0,0.0,0.0,0.0,0.0,0.0,0
1631907713274925364,32520,1631907713279176341,gps,0,0,39.81178097885182,-86.34157278662272,261.08762534800917,0.0,0.0,0.0,0.0,0.0,0.0,0.0,0.0,0.0,0
1631907713324900236,32521,1631907713330510589,gps,0,0,39.81177685424902,-86.34157255302884,261.0803835662082,0.0,0.0,0.0,0.0,0.0,0.0,0.0,0.0,0.0,0
1631907713374960296,32522,1631907713379592181,gps,0,0,39.811772710451955,-86.34157233056402,261.0661817807704,0.0,0.0,0.0,0.0,0.0,0.0,0.0,0.0,0.0,0
1631907713424946466,32523,1631907713429479889,gps,0,0,39.811768544832205,-86.34157216996445,261.0567682599649,0.0,0.0,0.0,0.0,0.0,0.0,0.0,0.0,0.0,0
1631907713475017550,32524,1631907713480324786,gps,0,0,39.81176440564674,-86.34157192971519,261.0439304430038,0.0,0.0,0.0,0.0,0.0,0.0,0.0,0.0,0.0,0
1631907713524936099,32525,1631907713535820143,gps,0,0,39.8117602786607,-86.34157162393447,261.0349233476445,0.0,0.0,0.0,0.0,0.0,0.0,0.0,0.0,0.0,0
1631907713574881668,32526,1631907713578608265,gps,0,0,39.81175612280066,-86.34157128537437,261.0377870807424,0.0,0.0,0.0,0.0,0.0,0.0,0.0,0.0,0.0,0
1631907713624959401,32527,1631907713630734917,gps,0,0,39.81175200160983,-86.3415709857003,261.0265602460131,0.0,0.0,0.0,0.0,0.0,0.0,0.0,0.0,0.0,0
1631907713650011032,32528,1631907713680260364,gps,0,0,39.81174787686739,-86.34157066951082,261.02205341588706,0.0,0.0,0.0,0.0,0.0,0.0,0.0,0.0,0.0,0
1631907713724908459,32529,1631907713730324542,gps,0,0,39.811743745017694,-86.3415703441287,261.017485964112,0.0,0.0,0.0,0.0,0.0,0.0,0.0,0.0,0.0,0
1631907713775032147,32530,1631907713780249469,gps,0,0,39.81173959905359,-86.34156996097921,261.01683745812625,0.0,0.0,0.0,0.0,0.0,0.0,0.0,0.0,0.0,0
1631907713824916159,32531,1631907713829267539,gps,0,0,39.8117354567567,-86.341569549696,261.0089814700186,0.0,0.0,0.0,0.0,0.0,0.0,0.0,0.0,0.0,0
1631907713874997610,32532,1631907713879722444,gps,0,0,39.81173134761851,-86.34156914583203,260.9902106486261,0.0,0.0,0.0,0.0,0.0,0.0,0.0,0.0,0.0,0
1631907713924966355,32533,1631907713931195097,gps,0,0,39.81172722446078,-86.34156867952366,260.98962616175413,0.0,0.0,0.0,0.0,0.0,0.0,0.0,0.0,0.0,0
1631907713950020949,32534,1631907713980034874,gps,0,0,39.811723054326464,-86.34156824316705,260.9779136404395,0.0,0.0,0.0,0.0,0.0,0.0,0.0,0.0,0.0,0
1631907714050001925,32535,1631907714060843963,gps,0,0,39.811718916521514,-86.34156773237976,260.9795823004097,0.0,0.0,0.0,0.0,0.0,0.0,0.0,0.0,0.0,0
1631907714075041102,32536,1631907714080679396,gps,0,0,39.81171478593995,-86.34156718010867,260.9547610329464,0.0,0.0,0.0,0.0,0.0,0.0,0.0,0.0,0.0,0
1631907714124921900,32537,1631907714134300972,gps,0,0,39.811710696406614,-86.34156666323246,260.96356860082597,0.0,0.0,0.0,0.0,0.0,0.0,0.0,0.0,0.0,0
1631907714175025486,32538,1631907714180822464,gps,0,0,39.81170655245328,-86.34156613735371,260.95150606893003,0.0,0.0,0.0,0.0,0.0,0.0,0.0,0.0,0.0,0
1631907714224956585,32539,1631907714233378739,gps,0,0,39.81170243048976,-86.34156552835836,260.93715273961425,0.0,0.0,0.0,0.0,0.0,0.0,0.0,0.0,0.0,0
1631907714275037554,32540,1631907714279946009,gps,0,0,39.81169831293345,-86.34156491817619,260.9544280767441,0.0,0.0,0.0,0.0,0.0,0.0,0.0,0.0,0.0,0
1631907714324943973,32541,1631907714330144713,gps,0,0,39.811694193316185,-86.34156430627093,260.92196195665747,0.0,0.0,0.0,0.0,0.0,0.0,0.0,0.0,0.0,0
1631907714375030595,32542,1631907714380608246,gps,0,0,39.81169010617938,-86.34156369780321,260.94426299259067,0.0,0.0,0.0,0.0,0.0,0.0,0.0,0.0,0.0,0
1631907714424945750,32543,1631907714430238461,gps,0,0,39.811685946709744,-86.34156307129003,260.9183111079037,0.0,0.0,0.0,0.0,0.0,0.0,0.0,0.0,0.0,0
1631907714474984703,32544,1631907714480118826,gps,0,0,39.8116818713336,-86.34156241924799,260.9115315293893,0.0,0.0,0.0,0.0,0.0,0.0,0.0,0.0,0.0,0
1631907714525014991,32545,1631907714535670510,gps,0,0,39.81167774774235,-86.34156179152244,260.9145274423063,0.0,0.0,0.0,0.0,0.0,0.0,0.0,0.0,0.0,0
1631907714574986672,32546,1631907714579498242,gps,0,0,39.81167361348715,-86.34156113943492,260.90200399421155,0.0,0.0,0.0,0.0,0.0,0.0,0.0,0.0,0.0,0
1631907714624894906,32547,1631907714630099571,gps,0,0,39.8116695195076,-86.34156054702841,260.9026852659881,0.0,0.0,0.0,0.0,0.0,0.0,0.0,0.0,0.0,0
1631907714674958801,32548,1631907714679821776,gps,0,0,39.81166539476168,-86.34155994986251,260.8800913365558,0.0,0.0,0.0,0.0,0.0,0.0,0.0,0.0,0.0,0
1631907714724981693,32549,1631907714730413959,gps,0,0,39.81166127955424,-86.34155933023182,260.87782050762326,0.0,0.0,0.0,0.0,0.0,0.0,0.0,0.0,0.0,0
1631907714774920095,32550,1631907714780098346,gps,0,0,39.811657151920265,-86.34155875525107,260.8751392895356,0.0,0.0,0.0,0.0,0.0,0.0,0.0,0.0,0.0,0
1631907714825022520,32551,1631907714830117008,gps,0,0,39.81165302443406,-86.3415581812669,260.87720897141844,0.0,0.0,0.0,0.0,0.0,0.0,0.0,0.0,0.0,0
1631907714874910740,32552,1631907714879492498,gps,0,0,39.8116489636058,-86.3415575650368,260.878144973889,0.0,0.0,0.0,0.0,0.0,0.0,0.0,0.0,0.0,0
1631907714924965597,32553,1631907714930916079,gps,0,0,39.81164482496931,-86.34155691966643,260.86953906621784,0.0,0.0,0.0,0.0,0.0,0.0,0.0,0.0,0.0,0
1631907714975008772,32554,1631907714980083579,gps,0,0,39.81164067766329,-86.34155632613877,260.8698630463332,0.0,0.0,0.0,0.0,0.0,0.0,0.0,0.0,0.0,0
1631907715049913071,32555,1631907715055982948,gps,0,0,39.81163656509841,-86.3415556845919,260.863337546587,0.0,0.0,0.0,0.0,0.0,0.0,0.0,0.0,0.0,0
1631907715075226687,32556,1631907715081723750,gps,0,0,39.811632498343286,-86.3415551239672,260.87334822304547,0.0,0.0,0.0,0.0,0.0,0.0,0.0,0.0,0.0,0
1631907715125027451,32557,1631907715134021259,gps,0,0,39.811628400357904,-86.34155450046582,260.8651999756694,0.0,0.0,0.0,0.0,0.0,0.0,0.0,0.0,0.0,0
1631907715175047904,32558,1631907715180645234,gps,0,0,39.81162430800009,-86.34155386828371,260.86532692983747,0.0,0.0,0.0,0.0,0.0,0.0,0.0,0.0,0.0,0
1631907715224954383,32559,1631907715233054550,gps,0,0,39.81162017748613,-86.34155318067211,260.8672712203115,0.0,0.0,0.0,0.0,0.0,0.0,0.0,0.0,0.0,0
1631907715275044770,32560,1631907715279327004,gps,0,0,39.81161607860122,-86.34155251911346,260.84865109436214,0.0,0.0,0.0,0.0,0.0,0.0,0.0,0.0,0.0,0
1631907715325028765,32561,1631907715330867279,gps,0,0,39.81161200136045,-86.34155184024127,260.8547347318381,0.0,0.0,0.0,0.0,0.0,0.0,0.0,0.0,0.0,0
1631907715375045724,32562,1631907715379825499,gps,0,0,39.81160788302445,-86.34155117140251,260.8485290724784,0.0,0.0,0.0,0.0,0.0,0.0,0.0,0.0,0.0,0
1631907715424906894,32563,1631907715430294049,gps,0,0,39.8116038004523,-86.34155049121746,260.8465598039329,0.0,0.0,0.0,0.0,0.0,0.0,0.0,0.0,0.0,0
1631907715474958057,32564,1631907715480026478,gps,0,0,39.81159973307117,-86.34154979184987,260.84432628843933,0.0,0.0,0.0,0.0,0.0,0.0,0.0,0.0,0.0,0
1631907715524954678,32565,1631907715537917687,gps,0,0,39.81159562328909,-86.34154904460391,260.84337470307946,0.0,0.0,0.0,0.0,0.0,0.0,0.0,0.0,0.0,0
1631907715574973279,32566,1631907715579569135,gps,0,0,39.81159157584898,-86.34154828452738,260.8436148352921,0.0,0.0,0.0,0.0,0.0,0.0,0.0,0.0,0.0,0
1631907715624960811,32567,1631907715630111103,gps,0,0,39.81158748157167,-86.34154755300645,260.8270391691476,0.0,0.0,0.0,0.0,0.0,0.0,0.0,0.0,0.0,0
1631907715674949176,32568,1631907715681731531,gps,0,0,39.8115834315398,-86.34154683440384,260.8395941685885,0.0,0.0,0.0,0.0,0.0,0.0,0.0,0.0,0.0,0
1631907715725012438,32569,1631907715730944280,gps,0,0,39.81157936892845,-86.34154609738948,260.83061575423926,0.0,0.0,0.0,0.0,0.0,0.0,0.0,0.0,0.0,0
1631907715775035555,32570,1631907715780111963,gps,0,0,39.81157529242226,-86.34154531823253,260.8188122622669,0.0,0.0,0.0,0.0,0.0,0.0,0.0,0.0,0.0,0
1631907715824970100,32571,1631907715830362242,gps,0,0,39.811571272546786,-86.34154445913694,260.8384084859863,0.0,0.0,0.0,0.0,0.0,0.0,0.0,0.0,0.0,0
1631907715875051882,32572,1631907715880723667,gps,0,0,39.81156717607925,-86.34154364668511,260.81651232019067,0.0,0.0,0.0,0.0,0.0,0.0,0.0,0.0,0.0,0
1631907715924955949,32573,1631907715930914053,gps,0,0,39.811563141185154,-86.34154287809893,260.800894908607,0.0,0.0,0.0,0.0,0.0,0.0,0.0,0.0,0.0,0
1631907715974950951,32574,1631907715979289217,gps,0,0,39.81155909078173,-86.34154211353618,260.7994296941906,0.0,0.0,0.0,0.0,0.0,0.0,0.0,0.0,0.0,0
1631907716050000258,32575,1631907716062865627,gps,0,0,39.81155506464018,-86.34154129928007,260.79564577899873,0.0,0.0,0.0,0.0,0.0,0.0,0.0,0.0,0.0,0
1631907716074942155,32576,1631907716080996085,gps,0,0,39.811551012370266,-86.34154045878994,260.8005719697103,0.0,0.0,0.0,0.0,0.0,0.0,0.0,0.0,0.0,0
1631907716124974191,32577,1631907716134939269,gps,0,0,39.81154694214072,-86.34153962265769,260.7610635040328,0.0,0.0,0.0,0.0,0.0,0.0,0.0,0.0,0.0,0
1631907716174947053,32578,1631907716178814074,gps,0,0,39.811542876076544,-86.34153882704355,260.7659781696275,0.0,0.0,0.0,0.0,0.0,0.0,0.0,0.0,0.0,0
1631907716224959438,32579,1631907716229903065,gps,0,0,39.8115388303982,-86.3415379796028,260.7582279127091,0.0,0.0,0.0,0.0,0.0,0.0,0.0,0.0,0.0,0
1631907716274969776,32580,1631907716280015256,gps,0,0,39.811534745548705,-86.34153718377722,260.72942141164094,0.0,0.0,0.0,0.0,0.0,0.0,0.0,0.0,0.0,0
1631907716324947279,32581,1631907716329792880,gps,0,0,39.81153075038652,-86.34153631955682,260.72924945969135,0.0,0.0,0.0,0.0,0.0,0.0,0.0,0.0,0.0,0
1631907716374970943,32582,1631907716380382117,gps,0,0,39.81152671853116,-86.3415354294146,260.74575040955096,0.0,0.0,0.0,0.0,0.0,0.0,0.0,0.0,0.0,0
1631907716425073497,32583,1631907716430273920,gps,0,0,39.81152269859179,-86.34153454558613,260.7296859221533,0.0,0.0,0.0,0.0,0.0,0.0,0.0,0.0,0.0,0
1631907716475013935,32584,1631907716480583264,gps,0,0,39.81151866212398,-86.34153363284787,260.73562786448747,0.0,0.0,0.0,0.0,0.0,0.0,0.0,0.0,0.0,0
1631907716525055835,32585,1631907716539118257,gps,0,0,39.81151470693781,-86.34153271909915,260.7520835297182,0.0,0.0,0.0,0.0,0.0,0.0,0.0,0.0,0.0,0
1631907716574996351,32586,1631907716579906424,gps,0,0,39.811510638698444,-86.34153180850882,260.751426666975,0.0,0.0,0.0,0.0,0.0,0.0,0.0,0.0,0.0,0
1631907716624996778,32587,1631907716629773603,gps,0,0,39.81150660810988,-86.34153087159488,260.749315995723,0.0,0.0,0.0,0.0,0.0,0.0,0.0,0.0,0.0,0
1631907716675031950,32588,1631907716679640450,gps,0,0,39.811502578174526,-86.34152996056721,260.7349122017622,0.0,0.0,0.0,0.0,0.0,0.0,0.0,0.0,0.0,0
1631907716724977901,32589,1631907716730374711,gps,0,0,39.81149858362513,-86.34152900505877,260.7459894157946,0.0,0.0,0.0,0.0,0.0,0.0,0.0,0.0,0.0,0
1631907716774972040,32590,1631907716780063887,gps,0,0,39.81149455240751,-86.34152803130553,260.7618135539815,0.0,0.0,0.0,0.0,0.0,0.0,0.0,0.0,0.0,0
1631907716824972255,32591,1631907716829922317,gps,0,0,39.81149051904405,-86.34152704756957,260.7579096611589,0.0,0.0,0.0,0.0,0.0,0.0,0.0,0.0,0.0,0
1631907716874953730,32592,1631907716878392524,gps,0,0,39.81148648138596,-86.3415260927701,260.7736270055175,0.0,0.0,0.0,0.0,0.0,0.0,0.0,0.0,0.0,0
1631907716924944723,32593,1631907716930743148,gps,0,0,39.811482434016966,-86.34152511535511,260.7818309776485,0.0,0.0,0.0,0.0,0.0,0.0,0.0,0.0,0.0,0
1631907716974990896,32594,1631907716980531975,gps,0,0,39.811478402897535,-86.34152413163473,260.77544610295445,0.0,0.0,0.0,0.0,0.0,0.0,0.0,0.0,0.0,0
1631907717049938470,32595,1631907717062385378,gps,0,0,39.81147439125371,-86.34152311597448,260.7959932181984,0.0,0.0,0.0,0.0,0.0,0.0,0.0,0.0,0.0,0
1631907717074986352,32596,1631907717080185044,gps,0,0,39.81147036503782,-86.34152207022223,260.8027292713523,0.0,0.0,0.0,0.0,0.0,0.0,0.0,0.0,0.0,0
1631907717124985619,32597,1631907717133307208,gps,0,0,39.81146636994663,-86.34152106205173,260.8268928937614,0.0,0.0,0.0,0.0,0.0,0.0,0.0,0.0,0.0,0
1631907717175011575,32598,1631907717185330442,gps,0,0,39.81146232918528,-86.34152005174748,260.82930674310774,0.0,0.0,0.0,0.0,0.0,0.0,0.0,0.0,0.0,0
1631907717224975106,32599,1631907717230289569,gps,0,0,39.81145830192375,-86.34151901125054,260.83504271321,0.0,0.0,0.0,0.0,0.0,0.0,0.0,0.0,0.0,0
1631907717275028571,32600,1631907717280838603,gps,0,0,39.81145426325353,-86.34151793704824,260.83834905177355,0.0,0.0,0.0,0.0,0.0,0.0,0.0,0.0,0.0,0
1631907717324982024,32601,1631907717330326215,gps,0,0,39.81145024505771,-86.34151686751512,260.84702845290303,0.0,0.0,0.0,0.0,0.0,0.0,0.0,0.0,0.0,0
1631907717349985212,32602,1631907717380375826,gps,0,0,39.811446227791414,-86.34151576688777,260.8601312339306,0.0,0.0,0.0,0.0,0.0,0.0,0.0,0.0,0.0,0
1631907717424940233,32603,1631907717430814466,gps,0,0,39.81144221128971,-86.34151471596226,260.85822872817516,0.0,0.0,0.0,0.0,0.0,0.0,0.0,0.0,0.0,0
1631907717474928640,32604,1631907717480110358,gps,0,0,39.811438209780306,-86.34151364199218,260.8668658984825,0.0,0.0,0.0,0.0,0.0,0.0,0.0,0.0,0.0,0
1631907717524974056,32605,1631907717537680082,gps,0,0,39.81143420443048,-86.34151257765276,260.86796155385673,0.0,0.0,0.0,0.0,0.0,0.0,0.0,0.0,0.0,0
1631907717574989985,32606,1631907717579438892,gps,0,0,39.81143018733552,-86.34151147666024,260.87238993216306,0.0,0.0,0.0,0.0,0.0,0.0,0.0,0.0,0.0,0
1631907717624987933,32607,1631907717628609565,gps,0,0,39.811426200696744,-86.34151033376985,260.8768416037783,0.0,0.0,0.0,0.0,0.0,0.0,0.0,0.0,0.0,0
1631907717674977961,32608,1631907717679928706,gps,0,0,39.81142221216725,-86.3415091773246,260.8792559290305,0.0,0.0,0.0,0.0,0.0,0.0,0.0,0.0,0.0,0
1631907717724955350,32609,1631907717730250463,gps,0,0,39.81141825767626,-86.34150800813157,260.88544267695397,0.0,0.0,0.0,0.0,0.0,0.0,0.0,0.0,0.0,0
1631907717774964276,32610,1631907717780351245,gps,0,0,39.81141428622967,-86.34150682928139,260.8882349403575,0.0,0.0,0.0,0.0,0.0,0.0,0.0,0.0,0.0,0
1631907717825033319,32611,1631907717830099238,gps,0,0,39.81141032686566,-86.34150563955569,260.88783251307905,0.0,0.0,0.0,0.0,0.0,0.0,0.0,0.0,0.0,0
1631907717874982294,32612,1631907717880392979,gps,0,0,39.81140640009055,-86.34150441967911,260.90616460423917,0.0,0.0,0.0,0.0,0.0,0.0,0.0,0.0,0.0,0
1631907717925016017,32613,1631907717930458437,gps,0,0,39.81140243865284,-86.34150318969373,260.89468699414283,0.0,0.0,0.0,0.0,0.0,0.0,0.0,0.0,0.0,0
1631907717975030876,32614,1631907717979278377,gps,0,0,39.81139850729526,-86.341501910845,260.8986251745373,0.0,0.0,0.0,0.0,0.0,0.0,0.0,0.0,0.0,0
1631907718050055537,32615,1631907718062876640,gps,0,0,39.81139461207395,-86.34150062950134,260.8963117171079,0.0,0.0,0.0,0.0,0.0,0.0,0.0,0.0,0.0,0
1631907718074984205,32616,1631907718080088058,gps,0,0,39.81139071019961,-86.34149932016554,260.91042477823794,0.0,0.0,0.0,0.0,0.0,0.0,0.0,0.0,0.0,0
1631907718125000498,32617,1631907718133195234,gps,0,0,39.811386784545185,-86.34149800645304,260.9104890115559,0.0,0.0,0.0,0.0,0.0,0.0,0.0,0.0,0.0,0
1631907718175075842,32618,1631907718186719505,gps,0,0,39.81138285595546,-86.34149667350792,260.89973398670554,0.0,0.0,0.0,0.0,0.0,0.0,0.0,0.0,0.0,0
1631907718224995205,32619,1631907718232615973,gps,0,0,39.811378941809764,-86.34149533764452,260.90786988288164,0.0,0.0,0.0,0.0,0.0,0.0,0.0,0.0,0.0,0
1631907718274983000,32620,1631907718279655222,gps,0,0,39.81137506409882,-86.34149403461552,260.9220085842535,0.0,0.0,0.0,0.0,0.0,0.0,0.0,0.0,0.0,0
1631907718324999481,32621,1631907718331185223,gps,0,0,39.811371193288835,-86.34149266877614,260.92227160185575,0.0,0.0,0.0,0.0,0.0,0.0,0.0,0.0,0.0,0
1631907718375064229,32622,1631907718381094479,gps,0,0,39.81136730790688,-86.3414912542438,260.9234419949353,0.0,0.0,0.0,0.0,0.0,0.0,0.0,0.0,0.0,0
1631907718424996275,32623,1631907718430823101,gps,0,0,39.81136345012769,-86.34148983379697,260.9181849360466,0.0,0.0,0.0,0.0,0.0,0.0,0.0,0.0,0.0,0
1631907718474977934,32624,1631907718480255815,gps,0,0,39.81135958644654,-86.34148840443622,260.91770953219384,0.0,0.0,0.0,0.0,0.0,0.0,0.0,0.0,0.0,0
1631907718524947087,32625,1631907718535037031,gps,0,0,39.811355758690624,-86.34148694773495,260.9313127156347,0.0,0.0,0.0,0.0,0.0,0.0,0.0,0.0,0.0,0
1631907718575001480,32626,1631907718580031202,gps,0,0,39.81135190091862,-86.34148547403919,260.9307644292712,0.0,0.0,0.0,0.0,0.0,0.0,0.0,0.0,0.0,0
1631907718625015355,32627,1631907718628554565,gps,0,0,39.81134809446436,-86.34148398772228,260.93056438677013,0.0,0.0,0.0,0.0,0.0,0.0,0.0,0.0,0.0,0
1631907718674958131,32628,1631907718680373330,gps,0,0,39.811344286899036,-86.34148247284728,260.93563143722713,0.0,0.0,0.0,0.0,0.0,0.0,0.0,0.0,0.0,0
1631907718724988699,32629,1631907718730076843,gps,0,0,39.81134044531183,-86.34148095499391,260.9384277537465,0.0,0.0,0.0,0.0,0.0,0.0,0.0,0.0,0.0,0
1631907718775113069,32630,1631907718781032861,gps,0,0,39.81133659637782,-86.34147940657236,260.92920035868883,0.0,0.0,0.0,0.0,0.0,0.0,0.0,0.0,0.0,0
1631907718824952248,32631,1631907718830282211,gps,0,0,39.81133279097949,-86.3414778713427,260.9337072027847,0.0,0.0,0.0,0.0,0.0,0.0,0.0,0.0,0.0,0
1631907718874996871,32632,1631907718880683004,gps,0,0,39.81132898372374,-86.34147630156272,260.939319929108,0.0,0.0,0.0,0.0,0.0,0.0,0.0,0.0,0.0,0
1631907718924996184,32633,1631907718930554345,gps,0,0,39.811325155646905,-86.34147474819693,260.94537661504,0.0,0.0,0.0,0.0,0.0,0.0,0.0,0.0,0.0,0
1631907718975058213,32634,1631907718979426469,gps,0,0,39.81132134776065,-86.34147317851878,260.9403396518901,0.0,0.0,0.0,0.0,0.0,0.0,0.0,0.0,0.0,0
1631907719049956876,32635,1631907719058563172,gps,0,0,39.8113175138035,-86.34147158613312,260.93682457879186,0.0,0.0,0.0,0.0,0.0,0.0,0.0,0.0,0.0,0
1631907719075040510,32636,1631907719079754524,gps,0,0,39.81131372741619,-86.34147001438203,260.9426318304613,0.0,0.0,0.0,0.0,0.0,0.0,0.0,0.0,0.0,0
1631907719125000647,32637,1631907719132178259,gps,0,0,39.81130991139698,-86.34146840293913,260.9424663102254,0.0,0.0,0.0,0.0,0.0,0.0,0.0,0.0,0.0,0
1631907719175040088,32638,1631907719180148265,gps,0,0,39.81130609219156,-86.34146677868783,260.93660120572895,0.0,0.0,0.0,0.0,0.0,0.0,0.0,0.0,0.0,0
1631907719225035286,32639,1631907719233859098,gps,0,0,39.811302309158656,-86.34146512936299,260.94804982934147,0.0,0.0,0.0,0.0,0.0,0.0,0.0,0.0,0.0,0
1631907719275095494,32640,1631907719284812028,gps,0,0,39.81129849165919,-86.34146346185214,260.947898901999,0.0,0.0,0.0,0.0,0.0,0.0,0.0,0.0,0.0,0
1631907719324979447,32641,1631907719330042596,gps,0,0,39.81129461214413,-86.34146182922318,260.94200054649264,0.0,0.0,0.0,0.0,0.0,0.0,0.0,0.0,0.0,0
1631907719375015387,32642,1631907719380529448,gps,0,0,39.811290791633034,-86.34146010722282,260.94360614102334,0.0,0.0,0.0,0.0,0.0,0.0,0.0,0.0,0.0,0
1631907719424998440,32643,1631907719430057747,gps,0,0,39.81128701956535,-86.34145831810912,260.9479666771367,0.0,0.0,0.0,0.0,0.0,0.0,0.0,0.0,0.0,0
1631907719475022736,32644,1631907719480493152,gps,0,0,39.81128322292562,-86.34145650824283,260.9443943258375,0.0,0.0,0.0,0.0,0.0,0.0,0.0,0.0,0.0,0
1631907719524998936,32645,1631907719536556445,gps,0,0,39.81127943191859,-86.34145464898468,260.94482205435634,0.0,0.0,0.0,0.0,0.0,0.0,0.0,0.0,0.0,0
1631907719574992608,32646,1631907719579742697,gps,0,0,39.811275647512396,-86.34145274989052,260.94616395328194,0.0,0.0,0.0,0.0,0.0,0.0,0.0,0.0,0.0,0
1631907719624987721,32647,1631907719629530638,gps,0,0,39.81127186351863,-86.34145081270528,260.95018154848367,0.0,0.0,0.0,0.0,0.0,0.0,0.0,0.0,0.0,0
1631907719675078772,32648,1631907719679836847,gps,0,0,39.81126807824369,-86.34144888814075,260.9425191981718,0.0,0.0,0.0,0.0,0.0,0.0,0.0,0.0,0.0,0
1631907719725003966,32649,1631907719730539773,gps,0,0,39.81126427105698,-86.34144691566766,260.93935521598905,0.0,0.0,0.0,0.0,0.0,0.0,0.0,0.0,0.0,0
1631907719775049145,32650,1631907719780761128,gps,0,0,39.811260511046605,-86.34144487386045,260.93636408727616,0.0,0.0,0.0,0.0,0.0,0.0,0.0,0.0,0.0,0
1631907719825016109,32651,1631907719829944666,gps,0,0,39.8112567291681,-86.34144284954803,260.93227278534323,0.0,0.0,0.0,0.0,0.0,0.0,0.0,0.0,0.0,0
1631907719875076234,32652,1631907719878717963,gps,0,0,39.81125298055514,-86.34144076446783,260.9340192498639,0.0,0.0,0.0,0.0,0.0,0.0,0.0,0.0,0.0,0
1631907719924991582,32653,1631907719931275154,gps,0,0,39.81124922936868,-86.34143870741943,260.9357176134363,0.0,0.0,0.0,0.0,0.0,0.0,0.0,0.0,0.0,0
1631907719975030106,32654,1631907719979874823,gps,0,0,39.81124546644631,-86.34143664636889,260.9341942984611,0.0,0.0,0.0,0.0,0.0,0.0,0.0,0.0,0.0,0
1631907720049996452,32655,1631907720063299972,gps,0,0,39.81124170542408,-86.3414345406992,260.93526717834175,0.0,0.0,0.0,0.0,0.0,0.0,0.0,0.0,0.0,0
1631907720075015417,32656,1631907720080085137,gps,0,0,39.8112379623385,-86.34143242895831,260.92910899873823,0.0,0.0,0.0,0.0,0.0,0.0,0.0,0.0,0.0,0
1631907720125063762,32657,1631907720132463008,gps,0,0,39.81123422930196,-86.34143028997836,260.9291422748938,0.0,0.0,0.0,0.0,0.0,0.0,0.0,0.0,0.0,0
1631907720174992479,32658,1631907720183314269,gps,0,0,39.811230504966126,-86.34142816731064,260.92861145269126,0.0,0.0,0.0,0.0,0.0,0.0,0.0,0.0,0.0,0
1631907720225067044,32659,1631907720230074816,gps,0,0,39.81122674625957,-86.34142600504144,260.9195722034201,0.0,0.0,0.0,0.0,0.0,0.0,0.0,0.0,0.0,0
1631907720275095496,32660,1631907720280905079,gps,0,0,39.81122301778782,-86.34142385932675,260.91283460054547,0.0,0.0,0.0,0.0,0.0,0.0,0.0,0.0,0.0,0
1631907720324960450,32661,1631907720330624655,gps,0,0,39.811219270631575,-86.34142171552557,260.8984833396971,0.0,0.0,0.0,0.0,0.0,0.0,0.0,0.0,0.0,0
1631907720375005203,32662,1631907720379570113,gps,0,0,39.81121556258779,-86.34141957068596,260.9227365013212,0.0,0.0,0.0,0.0,0.0,0.0,0.0,0.0,0.0,0
1631907720425088641,32663,1631907720429357609,gps,0,0,39.81121184236407,-86.34141737838719,260.9404590865597,0.0,0.0,0.0,0.0,0.0,0.0,0.0,0.0,0.0,0
1631907720475111415,32664,1631907720480329201,gps,0,0,39.81120813161282,-86.3414151522522,260.9347892161459,0.0,0.0,0.0,0.0,0.0,0.0,0.0,0.0,0.0,0
1631907720525034647,32665,1631907720537270996,gps,0,0,39.811204379684625,-86.34141294370598,260.9254329139367,0.0,0.0,0.0,0.0,0.0,0.0,0.0,0.0,0.0,0
1631907720574994696,32666,1631907720579380370,gps,0,0,39.81120066619394,-86.34141075336373,260.91458346974105,0.0,0.0,0.0,0.0,0.0,0.0,0.0,0.0,0.0,0
1631907720624995262,32667,1631907720629624105,gps,0,0,39.81119695108772,-86.34140853867306,260.9230708098039,0.0,0.0,0.0,0.0,0.0,0.0,0.0,0.0,0.0,0
1631907720674999306,32668,1631907720681089091,gps,0,0,39.811193209429845,-86.34140632903919,260.90964949596673,0.0,0.0,0.0,0.0,0.0,0.0,0.0,0.0,0.0,0
1631907720724995487,32669,1631907720730411673,gps,0,0,39.8111894719302,-86.34140412655447,260.89969823881984,0.0,0.0,0.0,0.0,0.0,0.0,0.0,0.0,0.0,0
1631907720775180640,32670,1631907720779792935,gps,0,0,39.811185746257756,-86.34140192607714,260.9154911097139,0.0,0.0,0.0,0.0,0.0,0.0,0.0,0.0,0.0,0
1631907720825033845,32671,1631907720829163835,gps,0,0,39.81118198476333,-86.34139970767825,260.91132048144937,0.0,0.0,0.0,0.0,0.0,0.0,0.0,0.0,0.0,0
1631907720875056221,32672,1631907720880068245,gps,0,0,39.811178254382966,-86.34139750988808,260.8984037935734,0.0,0.0,0.0,0.0,0.0,0.0,0.0,0.0,0.0,0
1631907720925108760,32673,1631907720930753318,gps,0,0,39.81117452959499,-86.3413953015071,260.8985601393506,0.0,0.0,0.0,0.0,0.0,0.0,0.0,0.0,0.0,0
